%time,field.time_from_start,field.base.pose.position.x,field.base.pose.position.y,field.base.pose.position.z,field.base.pose.orientation.x,field.base.pose.orientation.y,field.base.pose.orientation.z,field.base.pose.orientation.w,field.base.twist.linear.x,field.base.twist.linear.y,field.base.twist.linear.z,field.base.twist.angular.x,field.base.twist.angular.y,field.base.twist.angular.z,field.base.accel.linear.x,field.base.accel.linear.y,field.base.accel.linear.z,field.base.accel.angular.x,field.base.accel.angular.y,field.base.accel.angular.z,field.ee_motion0.pos.x,field.ee_motion0.pos.y,field.ee_motion0.pos.z,field.ee_motion0.vel.x,field.ee_motion0.vel.y,field.ee_motion0.vel.z,field.ee_motion0.acc.x,field.ee_motion0.acc.y,field.ee_motion0.acc.z,field.ee_motion1.pos.x,field.ee_motion1.pos.y,field.ee_motion1.pos.z,field.ee_motion1.vel.x,field.ee_motion1.vel.y,field.ee_motion1.vel.z,field.ee_motion1.acc.x,field.ee_motion1.acc.y,field.ee_motion1.acc.z,field.ee_motion2.pos.x,field.ee_motion2.pos.y,field.ee_motion2.pos.z,field.ee_motion2.vel.x,field.ee_motion2.vel.y,field.ee_motion2.vel.z,field.ee_motion2.acc.x,field.ee_motion2.acc.y,field.ee_motion2.acc.z,field.ee_motion3.pos.x,field.ee_motion3.pos.y,field.ee_motion3.pos.z,field.ee_motion3.vel.x,field.ee_motion3.vel.y,field.ee_motion3.vel.z,field.ee_motion3.acc.x,field.ee_motion3.acc.y,field.ee_motion3.acc.z,field.ee_forces0.x,field.ee_forces0.y,field.ee_forces0.z,field.ee_forces1.x,field.ee_forces1.y,field.ee_forces1.z,field.ee_forces2.x,field.ee_forces2.y,field.ee_forces2.z,field.ee_forces3.x,field.ee_forces3.y,field.ee_forces3.z,field.ee_contact0,field.ee_contact1,field.ee_contact2,field.ee_contact3
1000,0,-8.733196319106675e-12,-3.662294509124672e-11,0.5800000000060662,8.225171906630531e-13,-1.30539513704968e-12,1.381571851616406e-12,1.0,-3.886736290300847e-12,-6.5641100358305e-12,1.1522292770596064e-11,5.392956410686937e-13,-7.498576343815443e-13,3.997370687359228e-13,-3.9596180071002317e-13,5.067008378679556e-13,-1.8135816255540076e-12,-4.4787088622948763e-14,-7.686567777930711e-14,2.1567870706734466e-14,0.31,0.29,-1.3052101792454085e-11,0.0,0.0,0.0,0.0,0.0,0.0,0.31,-0.29,-3.229998949212782e-11,0.0,0.0,0.0,0.0,0.0,0.0,-0.31,0.29,-2.4985574743913433e-14,0.0,0.0,0.0,0.0,0.0,0.0,-0.31,-0.29,5.037027275051731e-12,0.0,0.0,0.0,0.0,0.0,0.0,-0.7030562672358664,5.522963263213337,214.35352977930978,0.6645191799377866,-6.834440442700213,192.62244520909823,-0.6988676143672438,-0.3634286049438685,192.6224451692953,0.737404701610166,1.6749057845326614,214.35352984196365,1,1,1,1
2501000,2500000,7.982938700903188e-08,-9.627123101106448e-08,0.5799999957535296,8.265769016674943e-08,5.788080703598798e-08,1.1487739966375876e-08,0.9999999999999949,9.559727168308052e-05,-0.0001152518394680023,-5.059187649955739e-06,0.0001979784532894016,0.0001385108990899405,2.7430574009296946e-05,0.07614425191655629,-0.09183398298989427,-0.00397715245822061,0.15774591616849215,0.11015884606506694,0.021725753295879023,0.31,0.29,-1.3052101792454085e-11,0.0,0.0,0.0,0.0,0.0,0.0,0.31,-0.29,-3.229998949212782e-11,0.0,0.0,0.0,0.0,0.0,0.0,-0.31,0.29,-2.4985574743913433e-14,0.0,0.0,0.0,0.0,0.0,0.0,-0.31,-0.29,5.037027275051731e-12,0.0,0.0,0.0,0.0,0.0,0.0,-0.3954601957040762,5.233565438736019,212.41569377976396,1.9520392172863619,-9.482844243570458,187.53872050857956,-0.592233101643406,-0.31470721220060344,212.67905395665028,4.272367332633428,0.2843413516747246,194.97819916337508,1,1,1,1
5001000,5000000,6.345266800063188e-07,-7.653198473459826e-07,0.5799999668631867,6.57275459393242e-07,4.589939064389565e-07,9.052524329819282e-08,0.9999999999996745,0.0003790534129975796,-0.0004573325048449504,-1.953471637998721e-05,0.0007855453026641582,0.0005475449304101161,0.0001075348829571167,0.15028709259534986,-0.18146306597793793,-0.007533063648039953,0.3116706934511511,0.21641853958541607,0.04213881226690866,0.31,0.29,-1.3052101792454085e-11,0.0,0.0,0.0,0.0,0.0,0.0,0.31,-0.29,-3.229998949212782e-11,0.0,0.0,0.0,0.0,0.0,0.0,-0.31,0.29,-2.4985574743913433e-14,0.0,0.0,0.0,0.0,0.0,0.0,-0.31,-0.29,5.037027275051731e-12,0.0,0.0,0.0,0.0,0.0,0.0,0.11330868688211496,4.6930249720884305,210.07878162448142,3.0725834764831657,-12.038904321019675,182.54467067731844,-0.2857935559140402,-0.17501788921240827,270.20735028792234,7.779737623083697,-1.2185593833963744,176.93050014619448,1,1,1,1
7501000,7500000,2.1274759000380015e-06,-2.567364240625118e-06,0.5799998911105924,2.2048690065119326e-06,1.5353996108476324e-06,3.0090430166281385e-07,0.9999999999963453,0.0008453648919613645,-0.001020729752689061,-4.237347150133244e-05,0.0017531474701807054,0.0012173545469131631,0.00023702946463806339,0.22242852203598482,-0.2688872489636243,-0.010667733571271609,0.46177412663825085,0.31877937847862103,0.06123763633997207,0.31,0.29,-1.3052101792454085e-11,0.0,0.0,0.0,0.0,0.0,0.0,0.31,-0.29,-3.229998949212782e-11,0.0,0.0,0.0,0.0,0.0,0.0,-0.31,0.29,-2.4985574743913433e-14,0.0,0.0,0.0,0.0,0.0,0.0,-0.31,-0.29,5.037027275051731e-12,0.0,0.0,0.0,0.0,0.0,0.0,0.8090056624704153,3.9180077068121273,207.38280331516324,4.030391699111102,-14.503523453289487,177.6406899852533,0.2002550341576334,0.04592708115831685,361.24503911692216,11.257403427839847,-2.828213946989031,160.179672972641,1,1,1,1
10001000,10000000,5.0095609811080485e-06,-6.048805554509012e-06,0.5799997489040598,5.194511483798954e-06,3.606975650427513e-06,7.023081220591644e-07,0.9999999999797567,0.0014895281804790383,-0.001799931332994441,-7.252234984752219e-05,0.0030912312223062297,0.002138193159276274,0.0004126258556587867,0.2925685402384611,-0.35410653194695335,-0.013381162227915576,0.6080559006361841,0.4172418257173505,0.07901978302290716,0.31,0.29,-1.3052101792454085e-11,0.0,0.0,0.0,0.0,0.0,0.0,0.31,-0.29,-3.229998949212782e-11,0.0,0.0,0.0,0.0,0.0,0.0,-0.31,0.29,-2.4985574743913433e-14,0.0,0.0,0.0,0.0,0.0,0.0,-0.31,-0.29,5.037027275051731e-12,0.0,0.0,0.0,0.0,0.0,0.0,1.6773860130085334,2.9251794864486627,204.3677688535104,4.8297036267530755,-16.877604418621512,172.82717270232268,0.845716679908394,0.33841541604917186,481.8298253974604,14.70325260178075,-4.539039865411642,144.69495782493365,1,1,1,1
12501000,12500000,9.719157036981937e-06,-1.1742264307643472e-05,0.5799995232846599,1.008333335021253e-05,6.9814172867347655e-06,1.350305134184377e-06,0.9999999999238814,0.0023065397504552047,-0.002789424995755198,-0.00010892824825208726,0.0047902419232907925,0.003300315513074694,0.0006310284674216991,0.36070714720277874,-0.4371209149279252,-0.015673349617971857,0.7505156123081981,0.5118064817405769,0.09548201166655532,0.31,0.29,-1.3052101792454085e-11,0.0,0.0,0.0,0.0,0.0,0.0,0.31,-0.29,-3.229998949212782e-11,0.0,0.0,0.0,0.0,0.0,0.0,-0.31,0.29,-2.4985574743913433e-14,0.0,0.0,0.0,0.0,0.0,0.0,-0.31,-0.29,5.037027275051731e-12,0.0,0.0,0.0,0.0,0.0,0.0,2.7042050204441783,1.7312061545395927,201.07368824122392,5.474759000991991,-19.162049995257377,168.104513098465,1.6303953926750214,0.6927348325977567,627.9994140833479,18.115172999785287,-6.345454664972604,130.44559488529163,1,1,1,1
15001000,15000000,1.6682130361186652e-05,-2.016658039365957e-05,0.5799991999262212,1.7316521135360558e-05,1.1954239143317185e-05,2.296338949493598e-06,0.9999999997759805,0.003291396073794467,-0.003983698490965437,-0.00015053806354855845,0.006840623841148025,0.00469397799910303,0.0008889327170399891,0.4268443429289377,-0.5179303979065397,-0.017544295741440456,0.88915279115041,0.6024740579606378,0.11062038396756035,0.31,0.29,-1.3052101792454085e-11,0.0,0.0,0.0,0.0,0.0,0.0,0.31,-0.29,-3.229998949212782e-11,0.0,0.0,0.0,0.0,0.0,0.0,-0.31,0.29,-2.4985574743913433e-14,0.0,0.0,0.0,0.0,0.0,0.0,-0.31,-0.29,5.037027275051731e-12,0.0,0.0,0.0,0.0,0.0,0.0,3.875217966725058,0.35275355462647073,197.54057148000484,5.96979756341075,-21.357762961438688,163.47310544361875,2.5340951837942947,1.099173047941671,795.7915101283952,21.491052476732325,-8.241875871980312,117.4008243359339,1,1,1,1
17501000,17500000,2.631183842701069e-05,-3.1826813081173655e-05,0.5799987671353305,2.7327316004156515e-05,1.8808777358406622e-05,3.5877161769826173e-06,0.999999999443288,0.004439093622401427,-0.0053772395686192635,-0.0001962986925704664,0.00923282000386214,0.006309438898833897,0.0011830234054356018,0.490980127416938,-0.5965349808827969,-0.01899400059832136,1.023966918795979,0.6892453513660636,0.12443036121194483,0.31,0.29,-1.3052101792454085e-11,0.0,0.0,0.0,0.0,0.0,0.0,0.31,-0.29,-3.229998949212782e-11,0.0,0.0,0.0,0.0,0.0,0.0,-0.31,0.29,-2.4985574743913433e-14,0.0,0.0,0.0,0.0,0.0,0.0,-0.31,-0.29,5.037027275051731e-12,0.0,0.0,0.0,0.0,0.0,0.0,5.17618013379888,-1.193512469749147,193.8084285715542,6.319059055592261,-23.46564609540707,158.9333440077225,3.5366200646029924,1.5480177792185146,981.2438184864128,24.82877888750074,-10.222721012743158,105.52988635907964,1,1,1,1
20001000,20000000,3.9009129887504044e-05,-4.721424101378731e-05,0.5799982158513328,4.053701218589596e-05,2.78161919736721e-05,5.267592408923392e-06,0.9999999987776312,0.00574462886818069,-0.0069645359787107895,-0.0002451570321513422,0.011957272102886617,0.008136958567753469,0.0015099733344721394,0.5531145006667795,-0.6729346638566966,-0.020022464188614586,1.1549574473439468,0.7721212202202763,0.13690689825947058,0.31,0.29,-1.3052101792454085e-11,0.0,0.0,0.0,0.0,0.0,0.0,0.31,-0.29,-3.229998949212782e-11,0.0,0.0,0.0,0.0,0.0,0.0,-0.31,0.29,-2.4985574743913433e-14,0.0,0.0,0.0,0.0,0.0,0.0,-0.31,-0.29,5.037027275051731e-12,0.0,0.0,0.0,0.0,0.0,0.0,6.592846803613354,-2.890926075045704,189.91726951757303,6.526783219119425,-25.48660217540415,154.48562306071463,4.617774046437894,2.0295567435658874,1180.3940441112118,28.126240086969393,-12.282407613569541,94.80202113694791,1,1,1,1
22501000,22500000,5.5162344575478215e-05,-6.680636221008741e-05,0.5799975396463304,5.735495532775793e-05,3.9235469476205395e-05,7.374956679554938e-06,0.9999999975582985,0.007202998283036859,-0.008740075471234116,-0.0002960599791247163,0.015004420440995142,0.010166799559313771,0.0018664421549746536,0.6132474626784625,-0.7471294468282392,-0.02062968651232013,1.2821238165124496,0.8511025608563553,0.14804453426879752,0.31,0.29,-1.3052101792454085e-11,0.0,0.0,0.0,0.0,0.0,0.0,0.31,-0.29,-3.229998949212782e-11,0.0,0.0,0.0,0.0,0.0,0.0,-0.31,0.29,-2.4985574743913433e-14,0.0,0.0,0.0,0.0,0.0,0.0,-0.31,-0.29,5.037027275051731e-12,0.0,0.0,0.0,0.0,0.0,0.0,8.11097325811619,-4.722821417721651,185.90710431976234,6.5972097955751465,-27.42153397967154,150.13033687253366,5.757361140635782,2.53407765812139,1389.2798919566026,31.381323930017178,-14.415353200767859,85.18646885175781,1,1,1,1
25001000,24999999,7.514731350350625e-05,-9.106689406364611e-05,0.5799967347251838,7.817854082900256e-05,5.33134254141085e-05,9.944614689508242e-06,0.9999999954734495,0.008809198338874537,-0.01069834579618335,-0.0003479544303241197,0.018364703921548504,0.012389226692242267,0.0022490754374883577,0.6713790134519868,-0.8191193297974244,-0.020815667569437972,1.4054654696188351,0.9261902855681263,0.15783748016345736,0.31,0.29,-1.3052101792454085e-11,0.0,0.0,0.0,0.0,0.0,0.0,0.31,-0.29,-3.229998949212782e-11,0.0,0.0,0.0,0.0,0.0,0.0,-0.31,0.29,-2.4985574743913433e-14,0.0,0.0,0.0,0.0,0.0,0.0,-0.31,-0.29,5.037027275051731e-12,0.0,0.0,0.0,0.0,0.0,0.0,9.716314779255091,-6.672532654235427,181.81794297982321,6.53457852654233,-29.27134428645086,145.8678797131181,6.935185358533431,3.051868240022621,1603.9390669763955,34.591918271522964,-16.615975300646507,76.65246968572838,1,1,1,1
27501000,27499999,9.932735886392263e-05,-0.00012044577334302081,0.5799957999255112,0.0001033932122084059,7.02847070092548e-05,1.3007171078526553e-05,0.9999999921003585,0.010558225507598325,-0.012833834703552604,-0.000399787282583083,0.022028560076250262,0.014794507063949882,0.002654503957628307,0.7275091529873523,-0.8889043127642523,-0.020580407359968134,1.5249818683916707,0.9973853015978926,0.16627970283866828,0.31,0.29,-1.3052101792454085e-11,0.0,0.0,0.0,0.0,0.0,0.0,0.31,-0.29,-3.229998949212782e-11,0.0,0.0,0.0,0.0,0.0,0.0,-0.31,0.29,-2.4985574743913433e-14,0.0,0.0,0.0,0.0,0.0,0.0,-0.31,-0.29,5.037027275051731e-12,0.0,0.0,0.0,0.0,0.0,0.0,11.394626648977772,-8.723393941045485,177.6897954994566,6.343129153603882,-31.036935873983737,141.6986458524064,8.131050711467623,3.5732162064071815,1820.4092741244026,37.755910966365626,-18.87869143951388,69.16926382107877,1,1,1,1
30001000,29999999,0.00012805329402882344,-0.00015537915619175422,0.5799947367176892,0.00013337245955375986,9.037179569401398e-05,1.6589011018834574e-05,0.9999999868847651,0.01244507626111283,-0.015141029943335984,-0.0004505054327351371,0.025986425128479616,0.0173729100127795,0.003079343187872205,0.7816378812845594,-0.9564843957287229,-0.019923905883910603,1.6406725066217271,1.0646884912211323,0.17336500610901925,0.31,0.29,-1.3052101792454085e-11,0.0,0.0,0.0,0.0,0.0,0.0,0.31,-0.29,-3.229998949212782e-11,0.0,0.0,0.0,0.0,0.0,0.0,-0.31,0.29,-2.4985574743913433e-14,0.0,0.0,0.0,0.0,0.0,0.0,-0.31,-0.29,5.037027275051731e-12,0.0,0.0,0.0,0.0,0.0,0.0,13.131664149231936,-10.858739434610257,173.56267188036358,6.027101418342706,-32.71921152051178,137.62302956033713,9.324761210775137,4.088409274412671,2034.728218354433,40.87118986942402,-21.19791914367837,62.706091440027976,1,1,1,1
32501000,32499999,0.0001616634235500662,-0.0001962894181283742,0.5799935492048518,0.00016847781809857152,0.00011378500950197113,2.071228139131341e-05,0.9999999791195987,0.014464747071322654,-0.017614419265527585,-0.000499055777613813,0.030228734089309393,0.020114707031837768,0.0035201929876485473,0.8337651983436077,-1.0218595786908362,-0.018846163141265394,1.7525369226608025,1.1281006929285184,0.17908710839706013,0.31,0.29,-1.3052101792454085e-11,0.0,0.0,0.0,0.0,0.0,0.0,0.31,-0.29,-3.229998949212782e-11,0.0,0.0,0.0,0.0,0.0,0.0,-0.31,0.29,-2.4985574743913433e-14,0.0,0.0,0.0,0.0,0.0,0.0,-0.31,-0.29,5.037027275051731e-12,0.0,0.0,0.0,0.0,0.0,0.0,14.9131825619653,-13.061903291388205,169.47658212424514,5.590735062341702,-34.319074004276615,133.6414251068486,10.49612086779275,4.587735161176688,2242.933604620298,43.93564283557705,-23.568075939448377,57.23219272479518,1,1,1,1
35001000,35000000,0.00020048354315927,-0.00024358515404639407,0.5799922441228914,0.00020905886696743464,0.0001407225052459418,2.5394871796454537e-05,0.999999967923333,0.016612234410132407,-0.020248490420121536,-0.0005443852140526412,0.034745920883341615,0.02301017163715401,0.0039736374835723995,0.8838911041644975,-1.0850298616505922,-0.017347179132032493,1.8605747107787076,1.187622683705597,0.18343971716283938,0.31,0.29,-1.3052101792454085e-11,0.0,0.0,0.0,0.0,0.0,0.0,0.31,-0.29,-3.229998949212782e-11,0.0,0.0,0.0,0.0,0.0,0.0,-0.31,0.29,-2.4985574743913433e-14,0.0,0.0,0.0,0.0,0.0,0.0,-0.31,-0.29,5.037027275051731e-12,0.0,0.0,0.0,0.0,0.0,0.0,16.72493716912556,-15.316219667837764,165.47153623280235,5.03826982718378,-35.83742610351985,129.75422676187944,11.62493369385725,5.0614815838368346,2441.0631378758094,46.947157719703576,-25.98357935313231,52.71680785759946,1,1,1,1
37501000,37500000,0.00024482693976781545,-0.0002976611782143123,0.5799908308404581,0.0002554532281279174,0.00017137028041989104,3.0650395641896604e-05,0.999999952218213,0.018882534749446685,-0.023037731157111926,-0.0005854406388851527,0.039528418501519974,0.026049579192910646,0.0044362451316812684,0.9320155987472283,-1.1459952446079913,-0.0154269538562119,1.9647855313898626,1.243255162410452,0.18641660007443153,0.31,0.29,-1.3052101792454085e-11,0.0,0.0,0.0,0.0,0.0,0.0,0.31,-0.29,-3.229998949212782e-11,0.0,0.0,0.0,0.0,0.0,0.0,-0.31,0.29,-2.4985574743913433e-14,0.0,0.0,0.0,0.0,0.0,0.0,-0.31,-0.29,5.037027275051731e-12,0.0,0.0,0.0,0.0,0.0,0.0,18.552683252660444,-17.605022720417388,161.5875442077362,4.373945454451836,-37.27517059648313,125.96182879536806,12.691003700305412,5.499936259530711,2625.1545230747765,49.90362237668246,-28.43884691103854,49.1291770206598,1,1,1,1
40001000,40000000,0.00029499439146684443,-0.00035889852427561263,0.5799893213589593,0.0003079865655832282,0.00020590217476471425,3.648817153819483e-05,0.9999999307085892,0.021270644561170084,-0.025976629226492864,-0.0006211689489448776,0.04456665917810866,0.02922320669649066,0.004904568953523563,0.9781386820918008,-1.2047557275630325,-0.013085487313803629,2.0651691201618303,1.2949987342496392,0.188011652919503,0.31,0.29,-1.3052101792454085e-11,0.0,0.0,0.0,0.0,0.0,0.0,0.31,-0.29,-3.229998949212782e-11,0.0,0.0,0.0,0.0,0.0,0.0,-0.31,0.29,-2.4985574743913433e-14,0.0,0.0,0.0,0.0,0.0,0.0,-0.31,-0.29,5.037027275051731e-12,0.0,0.0,0.0,0.0,0.0,0.0,20.38217609451764,-19.911646605585503,157.86461605074774,3.6020016857287827,-38.63321026140807,122.26462547725298,13.674134898474007,5.893386905395913,2791.245465171009,52.80292466139258,-30.92829613947548,46.43854039619545,1,1,1,1
42501000,42500000,0.00035127416752726067,-0.0004276644452487639,0.5799877303125616,0.00036697258483637347,0.0002444798714412297,4.2913205224333926e-05,0.9999999018595809,0.023771560317207223,-0.029059672378258454,-0.0006505170410653475,0.0498510745890583,0.03252133252608799,0.005375146937952329,1.0222603541982145,-1.2613113105157168,-0.010322779504807672,2.1617252960186755,1.3428538963526566,0.1882189642579604,0.31,0.29,-1.3052101792454085e-11,0.0,0.0,0.0,0.0,0.0,0.0,0.31,-0.29,-3.229998949212782e-11,0.0,0.0,0.0,0.0,0.0,0.0,-0.31,0.29,-2.4985574743913433e-14,0.0,0.0,0.0,0.0,0.0,0.0,-0.31,-0.29,5.037027275051731e-12,0.0,0.0,0.0,0.0,0.0,0.0,22.199170976644865,-22.219425479800584,154.342761763538,2.7266782625975194,-39.912447876536255,118.66301107747267,14.55413129969983,6.2321212385700475,2935.373669118321,55.642952428712825,-33.44634456475152,44.614138166425334,1,1,1,1
45001000,45000000,0.0004139420283997293,-0.0005043124135272206,0.5799860749681882,0.00043271303265303765,0.00028725289775717605,4.992617223437294e-05,0.9999998638762815,0.026380278489462696,-0.03228134836240282,-0.0006724318120800929,0.05537209606901253,0.03593423615362745,0.005844502600476984,1.0643806150664696,-1.3156619934660438,-0.00713883042922403,2.2544539680523634,1.3868210244451349,0.1870328768157263,0.31,0.29,-1.3052101792454085e-11,0.0,0.0,0.0,0.0,0.0,0.0,0.31,-0.29,-3.229998949212782e-11,0.0,0.0,0.0,0.0,0.0,0.0,-0.31,0.29,-2.4985574743913433e-14,0.0,0.0,0.0,0.0,0.0,0.0,-0.31,-0.29,5.037027275051731e-12,0.0,0.0,0.0,0.0,0.0,0.0,23.989423180989824,-24.511693499521034,151.06199134780803,1.7522149266409555,-41.11378622010935,115.15737986596561,15.310796915319639,6.5064269761907045,3053.5768398705186,58.421593533522056,-35.987409713175055,43.62521051356867,1,1,1,1
47501000,47500000,0.0004832612257146768,-0.0005891821208794223,0.5799843752255215,0.0005054976971469576,0.00033435862539849784,5.752340150650216e-05,0.9999998146837059,0.029091795549841114,-0.03563614492892005,-0.0006858601588226449,0.06112015484424206,0.039452197825741185,0.006309145692025978,1.104499464696566,-1.367807776414013,-0.003533640087052675,2.3433551413554823,1.4269003606209079,0.18444804561968134,0.31,0.29,-1.3052101792454085e-11,0.0,0.0,0.0,0.0,0.0,0.0,0.31,-0.29,-3.229998949212782e-11,0.0,0.0,0.0,0.0,0.0,0.0,-0.31,0.29,-2.4985574743913433e-14,0.0,0.0,0.0,0.0,0.0,0.0,-0.31,-0.29,5.037027275051731e-12,0.0,0.0,0.0,0.0,0.0,0.0,25.73868798950024,-26.771784821205355,148.06231480525878,0.6828514194419855,-42.23812807036892,111.74812611267028,15.92393575667024,6.7065918353954945,3141.892682381418,61.136735830699145,-38.545909111054485,43.44099761984446,1,1,1,1
50001000,50000000,0.0005594825022822913,-0.0006825994784487936,0.5799826536170004,0.0005856044082081853,0.00038592227011874966,6.569686012570124e-05,0.9999997519076698,0.03190110797024707,-0.039118549827804265,-0.0006897489781265331,0.06708568227882575,0.04306549821554901,0.0067655730489732425,1.1426169030885036,-1.4177486593596256,0.0004927915217063511,2.4284289217884094,1.4630920022130385,0.1804594928738035,0.31,0.29,-1.3052101792454085e-11,0.0,0.0,0.0,0.0,0.0,0.0,0.31,-0.29,-3.229998949212782e-11,0.0,0.0,0.0,0.0,0.0,0.0,-0.31,0.29,-2.4985574743913433e-14,0.0,0.0,0.0,0.0,0.0,0.0,-0.31,-0.29,5.037027275051731e-12,0.0,0.0,0.0,0.0,0.0,0.0,27.432720684123794,-28.983033601311934,145.38374213759136,-0.47717251741647626,-43.28637620555665,108.43564408752519,16.373351835088382,6.822903533322005,3196.3589016048254,63.78626717512298,-41.1162602846982,44.03073966747182,1,1,1,1
52501000,52500000,0.0006428440920925224,-0.0007848766167537449,0.5799809353078229,0.0006732990382912864,0.00044205689084404125,7.443413938110869e-05,0.999999672856781,0.034803212222585166,-0.042723050809049555,-0.0006830451668252899,0.07325911013143109,0.04676441804799005,0.007210269576281579,1.1787329302422829,-1.4654846423028804,0.004940464397053049,2.50967551969365,1.4953958917638157,0.1750626595765263,0.31,0.29,-1.3052101792454085e-11,0.0,0.0,0.0,0.0,0.0,0.0,0.31,-0.29,-3.229998949212782e-11,0.0,0.0,0.0,0.0,0.0,0.0,-0.31,0.29,-2.4985574743913433e-14,0.0,0.0,0.0,0.0,0.0,0.0,-0.31,-0.29,5.037027275051731e-12,0.0,0.0,0.0,0.0,0.0,0.0,29.05727654680822,-31.12877399629926,143.06628334650676,-1.723617142351535,-44.25943340391412,105.2203280604688,16.639172203243977,6.845746111812627,3213.013777615634,66.36807542167243,-43.692880760414596,45.363676838669825,1,1,1,1
55001000,55000000,0.0007335717203150812,-0.0008963118856876709,0.5799792480959443,0.0007688355035772193,0.0005028633881545982,8.37184423091474e-05,0.9999995745057113,0.03779310477876003,-0.04644413562265005,-0.0006646956217524454,0.07963087082007728,0.05053923770145301,0.0076397093556159175,1.2128475461579031,-1.5110157252437784,0.00980937853898746,2.587095252569525,1.5238118080936707,0.1682534538793242,0.31,0.29,-1.3052101792454085e-11,0.0,0.0,0.0,0.0,0.0,0.0,0.31,-0.29,-3.229998949212782e-11,0.0,0.0,0.0,0.0,0.0,0.0,-0.31,0.29,-2.4985574743913433e-14,0.0,0.0,0.0,0.0,0.0,0.0,-0.31,-0.29,5.037027275051731e-12,0.0,0.0,0.0,0.0,0.0,0.0,30.598110859501215,-33.192340162625754,141.14994843370602,-3.0522427137802746,-45.15820244368296,102.10257230143962,16.969874489081082,6.847571233764206,3189.8018277236947,68.88004842522636,-46.27018806451208,47.40904931565763,1,1,1,1
57501000,57500000,0.0008318786032994405,-0.001017189854518953,0.5799776224120783,0.0008724557655194256,0.0005684305021077099,9.352857288339986e-05,0.9999994534799044,0.04086578211067622,-0.05027629201859982,-0.0006336472397415293,0.08619139769229343,0.054380236788452295,0.008050356870279593,1.2449607508353648,-1.5543419081823187,0.015099533947509541,2.6606885467145682,1.5483393584688865,0.16002829618651826,0.31,0.29,-1.3052101792454085e-11,0.0,0.0,0.0,0.0,0.0,0.0,0.31,-0.29,-3.229998949212782e-11,0.0,0.0,0.0,0.0,0.0,0.0,-0.31,0.29,-2.4985574743913433e-14,0.0,0.0,0.0,0.0,0.0,0.0,-0.31,-0.29,5.037027275051731e-12,0.0,0.0,0.0,0.0,0.0,0.0,32.04097890415048,-35.15706625674986,139.67474740089017,-4.458809490119801,-45.983586103104784,99.08277108037609,17.566952234836908,6.89446370719119,3129.90797408844,71.32007404066366,-48.84259972329903,50.136097280654205,1,1,1,1
60001000,60000000,0.0009379654485748342,-0.0011477813118909565,0.5799760913196959,0.0009843898327814404,0.0006388348093705801,0.00010383892700218,0.9999993060418696,0.04401624069023837,-0.05421400774689299,-0.0005888469176260742,0.09293112529811243,0.05827769371809657,0.008438668338826645,1.2750725442746682,-1.5954631911185015,0.020810930622619295,2.7304559378530837,1.5689779718679042,0.15038416099627677,0.31,0.29,-1.3052101792454085e-11,0.0,0.0,0.0,0.0,0.0,0.0,0.31,-0.29,-3.229998949212782e-11,0.0,0.0,0.0,0.0,0.0,0.0,-0.31,0.29,-2.4985574743913433e-14,0.0,0.0,0.0,0.0,0.0,0.0,-0.31,-0.29,5.037027275051731e-12,0.0,0.0,0.0,0.0,0.0,0.0,33.37163596270375,-37.00628643513004,138.68069024976023,-5.939077729787206,-46.73648716042122,96.16131866721672,18.392653446303346,6.982948013962339,3037.3298194215618,73.68604012286318,-51.40453326308385,53.51406091587869,1,1,1,1
62501000,62500000,0.0010520204548502578,-0.0012883432658220325,0.5799746905150261,0.001104855763570207,0.0007141407196354034,0.000114619485414719,0.9999991280791938,0.0472394769893511,-0.0582517705575237,-0.0005292415522396101,0.09984048966336477,0.06222188524309631,0.008801093149203054,1.3031829264758126,-1.6343795740523275,0.026943568564316733,2.796398070751187,1.585726893345948,0.13931861548276692,0.31,0.29,-1.3052101792454085e-11,0.0,0.0,0.0,0.0,0.0,0.0,0.31,-0.29,-3.229998949212782e-11,0.0,0.0,0.0,0.0,0.0,0.0,-0.31,0.29,-2.4985574743913433e-14,0.0,0.0,0.0,0.0,0.0,0.0,-0.31,-0.29,5.037027275051731e-12,0.0,0.0,0.0,0.0,0.0,0.0,34.57583731710871,-38.72333485422474,138.20778698201724,-7.488807691199579,-47.41780839387386,93.3386093319,19.409226129272263,7.10954863594641,2916.064966434753,75.97583452670379,-53.95040621017494,57.51218040355016,1,1,1,1
65001000,65000000,0.0011742193120144687,-0.0014391189437055177,0.5799734583270566,0.0012340596683661626,0.0007944004712928093,0.0001258358087168491,0.9999989150943992,0.050530487479918985,-0.06238406820048602,-0.0004537780404156675,0.10690992856075916,0.06620308599405521,0.009134075385269719,1.329291897438798,-1.671091056983796,0.03349744777260187,2.8585156978314084,1.5985851794976482,0.12682985481939124,0.31,0.29,-1.3052101792454085e-11,0.0,0.0,0.0,0.0,0.0,0.0,0.31,-0.29,-3.229998949212782e-11,0.0,0.0,0.0,0.0,0.0,0.0,-0.31,0.29,-2.4985574743913433e-14,0.0,0.0,0.0,0.0,0.0,0.0,-0.31,-0.29,5.037027275051731e-12,0.0,0.0,0.0,0.0,0.0,0.0,35.63933824931306,-40.29154567049239,138.29604759936217,-9.103759632774038,-48.02845258170438,90.6150373443644,20.578918289535558,7.270790055012163,2770.1110178397043,78.1873451070644,-56.474636090880715,62.09969592588783,1,1,1,1
67501000,67500000,0.001304725201135986,-0.0016003377923097342,0.5799724357175321,0.0013721957130480983,0.0008796541263437192,0.00013744903453704975,0.9999986621967581,0.05388426863384662,-0.06660538842577404,-0.0003614032789877779,0.11412988177625524,0.07021156800379037,0.00943405543755983,1.3533994571636252,-1.7055976399129074,0.04047256824747472,2.9168096767925564,1.6075516950172377,0.1129167342430204,0.31,0.29,-1.3052101792454085e-11,0.0,0.0,0.0,0.0,0.0,0.0,0.31,-0.29,-3.229998949212782e-11,0.0,0.0,0.0,0.0,0.0,0.0,-0.31,0.29,-2.4985574743913433e-14,0.0,0.0,0.0,0.0,0.0,0.0,-0.31,-0.29,5.037027275051731e-12,0.0,0.0,0.0,0.0,0.0,0.0,36.54789404126454,-41.69425304039141,138.98548210349617,-10.779693812927638,-48.56932250215435,87.9909969745484,21.863977932885106,7.463196753028354,2603.465576348109,80.31845971882387,-58.97164043150953,67.24584766511062,1,1,1,1
70001000,70000000,0.0014436887944630891,-0.0017722154777779883,0.5799716662809556,0.0015194461224077656,0.0009699295645335534,0.0001494158770236963,0.9999983640961703,0.057295816923038645,-0.07091021898338191,-0.00025106416478947076,0.12149079136824757,0.07423760022442448,0.009697471690122916,1.3755056056502935,-1.7378993228396609,0.047868929988935244,2.9712809672400375,1.6126251103558653,0.09757879785910972,0.31,0.29,-1.3052101792454085e-11,0.0,0.0,0.0,0.0,0.0,0.0,0.31,-0.29,-3.229998949212782e-11,0.0,0.0,0.0,0.0,0.0,0.0,-0.31,0.29,-2.4985574743913433e-14,0.0,0.0,0.0,0.0,0.0,0.0,-0.31,-0.29,5.037027275051731e-12,0.0,0.0,0.0,0.0,0.0,0.0,37.28725997491084,-42.91479112038029,140.31610049612019,-12.512370490077512,-49.04132093346539,85.46688249239048,23.22665306511279,7.683293211863743,2420.126244671661,82.36706621686108,-61.43583675836979,72.91987580343766,1,1,1,1
72501000,72500000,0.0015912482554238203,-0.001954953885628572,0.5799711962445881,0.0016759811840462067,0.001065242476696695,0.0001616886287343312,0.9999980150991921,0.06076012881939963,-0.07529304762330372,-0.00012170759465427762,0.12898310191709303,0.07827144803999195,0.009920762275307658,1.3956103428988036,-1.7679961057640576,0.05568653299698344,3.0219306263302386,1.6138039004754903,0.08081630418756607,0.31,0.29,-1.3052101792454085e-11,0.0,0.0,0.0,0.0,0.0,0.0,0.31,-0.29,-3.229998949212782e-11,0.0,0.0,0.0,0.0,0.0,0.0,-0.31,0.29,-2.4985574743913433e-14,0.0,0.0,0.0,0.0,0.0,0.0,-0.31,-0.29,5.037027275051731e-12,0.0,0.0,0.0,0.0,0.0,0.0,37.84319133219967,-43.93649406691749,142.32791277893517,-14.297549922640759,-49.44535065387915,83.04308816782914,24.629191692010494,7.927603913387089,2224.09062552205,84.33105245605486,-63.861642597769915,79.09102052308798,1,1,1,1
75001000,75000000,0.001747529238625982,-0.002148741120754764,0.5799710744684483,0.001841959252640784,0.0011655963573030687,0.00017421516501774957,0.9999976091073017,0.0642722007948342,-0.0797483620955336,2.7719534584269914e-05,0.13659726076251846,0.08230337277730015,0.010100366888335181,1.4137136689091543,-1.795887988686097,0.06392537727161934,3.0687598034308636,1.6110863446987884,0.06263024844920431,0.31,0.29,-1.3052101792454085e-11,0.0,0.0,0.0,0.0,0.0,0.0,0.31,-0.29,-3.229998949212782e-11,0.0,0.0,0.0,0.0,0.0,0.0,-0.31,0.29,-2.4985574743913433e-14,0.0,0.0,0.0,0.0,0.0,0.0,-0.31,-0.29,5.037027275051731e-12,0.0,0.0,0.0,0.0,0.0,0.0,38.20144339507874,-44.742696036461425,145.06092895364228,-16.130992369034445,-49.78231444163724,80.72000827080288,26.0338418193701,8.192653339467146,2019.3563216109696,86.20830629128415,-66.24347547601829,85.728522006281,1,1,1,1
77501000,77500000,0.00191264488985714,-0.002353751507424826,0.5799713524453128,0.002017526754568956,0.0012709824962027177,0.00018693895096966493,0.999997139617468,0.06782702932124696,-0.08427065015006559,0.000198270326092642,0.14432371822644963,0.08632363121778462,0.010232728653513969,1.4298155836813469,-1.8215749716057783,0.07258546281284295,3.1117697337974146,1.6044705276544393,0.04302238159261647,0.31,0.29,-1.3052101792454085e-11,0.0,0.0,0.0,0.0,0.0,0.0,0.31,-0.29,-3.229998949212782e-11,0.0,0.0,0.0,0.0,0.0,0.0,-0.31,0.29,-2.4985574743913433e-14,0.0,0.0,0.0,0.0,0.0,0.0,-0.31,-0.29,5.037027275051731e-12,0.0,0.0,0.0,0.0,0.0,0.0,38.347771445495766,-45.31673118547053,148.55515902194253,-18.008458087675685,-50.05311507498127,78.49803707125015,27.402851452983484,8.474965971972676,1809.9209356501121,87.99671557742776,-68.57575291942331,92.80162043523538,1,1,1,1
80001000,80000000,0.0020866958460846194,-0.0025701455892820054,0.5799720843007167,0.0022028181928718856,0.0013813799695682452,0.00019979905103267802,0.999996599725083,0.0714196108705425,-0.08885439953689388,0.0003909978830373079,0.15215292781880016,0.09032247511309627,0.010314296033947339,1.4439160872153805,-1.845057054523103,0.08166678962065421,3.1509617312641316,1.5939543413171287,0.021995226061252295,0.31,0.29,-1.3052101792454085e-11,0.0,0.0,0.0,0.0,0.0,0.0,0.31,-0.29,-3.229998949212782e-11,0.0,0.0,0.0,0.0,0.0,0.0,-0.31,0.29,-2.4985574743913433e-14,0.0,0.0,0.0,0.0,0.0,0.0,-0.31,-0.29,5.037027275051731e-12,0.0,0.0,0.0,0.0,0.0,0.0,38.26793076539843,-45.641933670403276,152.85061298553688,-19.925707336981574,-50.25865533215286,76.37756883910941,28.698468598642535,8.771066292772439,1599.7820703511702,89.6941681693646,-70.85289245429337,100.27955599217034,1,1,1,1
82501000,82500000,0.0022697702354555083,-0.0027980701293445374,0.5799733267929519,0.002397956152538012,0.0014967556300390372,0.00021273014130122558,0.9999959821293091,0.07504494191462538,-0.0934940980060125,0.0006069553085847369,0.16007534642375204,0.0942901507071557,0.010341524776583596,1.4560151795112555,-1.8663342374380707,0.09116935769505316,3.18633717994588,1.579535488141588,-0.0004479116995045919,0.31,0.29,-1.3052101792454085e-11,0.0,0.0,0.0,0.0,0.0,0.0,0.31,-0.29,-3.229998949212782e-11,0.0,0.0,0.0,0.0,0.0,0.0,-0.31,0.29,-2.4985574743913433e-14,0.0,0.0,0.0,0.0,0.0,0.0,-0.31,-0.29,5.037027275051731e-12,0.0,0.0,0.0,0.0,0.0,0.0,37.94767663673446,-45.70163764771803,157.98730084612643,-21.878500375369196,-50.39983799139365,74.35899784431922,29.882941262139134,9.077478783735188,1392.9373284258352,91.29855192197356,-73.06931160693685,108.1315688593049,1,1,1,1
85001000,85000000,0.002461943677296657,-0.003037658110005639,0.5799751393130694,0.0026030513060838188,0.0016170640960751796,0.00022566252458212007,0.9999952791408727,0.07869801892540029,-0.09818423330741559,0.0008471957059013975,0.16808143446404966,0.09821689826741029,0.010310879884458687,1.466112860568972,-1.8854065203506807,0.1010931670360398,3.217897524945584,1.5612114852899461,-0.024302931995496352,0.31,0.29,-1.3052101792454085e-11,0.0,0.0,0.0,0.0,0.0,0.0,0.31,-0.29,-3.229998949212782e-11,0.0,0.0,0.0,0.0,0.0,0.0,-0.31,0.29,-2.4985574743913433e-14,0.0,0.0,0.0,0.0,0.0,0.0,-0.31,-0.29,5.037027275051731e-12,0.0,0.0,0.0,0.0,0.0,0.0,37.37276434145156,-45.479177273873375,164.00523260541217,-23.86259746125566,-50.47756583094522,72.44271835681798,30.918517449265167,9.390727926729683,1193.3843125858004,92.80775469013346,-75.21942790366217,116.32689921885833,1,1,1,1
87501000,87500000,0.0026632792821146742,-0.0032890287330335144,0.5799775838848772,0.002818202419406041,0.0017422477405330517,0.00023852214825121558,0.999994482692339,0.08237383837477179,-0.10291929319109727,0.0011127721781537597,0.17616165604081133,0.10209295162802466,0.010218837607980358,1.4742091303885296,-1.9022739032609333,0.11143821764361411,3.2456442620599,1.5389796699516973,-0.04956493589742275,0.31,0.29,-1.3052101792454085e-11,0.0,0.0,0.0,0.0,0.0,0.0,0.31,-0.29,-3.229998949212782e-11,0.0,0.0,0.0,0.0,0.0,0.0,-0.31,0.29,-2.4985574743913433e-14,0.0,0.0,0.0,0.0,0.0,0.0,-0.31,-0.29,5.037027275051731e-12,0.0,0.0,0.0,0.0,0.0,0.0,36.52894916149744,-44.95788670532764,170.94441826509512,-25.87375885305805,-50.49274162904923,70.62912464654426,31.767445165812493,9.707338203624685,1005.1206255427585,94.21966432872323,-77.2976588707777,124.83478725304971,1,1,1,1
90001000,90000000,0.0028738276515959337,-0.003552287419571353,0.5799807251649419,0.0030434963578766312,0.001872236678478544,0.00025123062493663615,0.9999935843508759,0.08606739673464447,-0.10769376540705164,0.001404737828508292,0.18430647904634379,0.10590853774773684,0.010061887447102433,1.480303988969929,-1.9169363861688287,0.12220450951777614,3.2695789264739314,1.5128372057555524,-0.07622822251519691,0.31,0.29,-1.3052101792454085e-11,0.0,0.0,0.0,0.0,0.0,0.0,0.31,-0.29,-3.229998949212782e-11,0.0,0.0,0.0,0.0,0.0,0.0,-0.31,0.29,-2.4985574743913433e-14,0.0,0.0,0.0,0.0,0.0,0.0,-0.31,-0.29,5.037027275051731e-12,0.0,0.0,0.0,0.0,0.0,0.0,35.40198637881983,-44.12110009853933,178.8448678268763,-27.907744809193474,-50.44626816394727,68.91861098343645,32.39197241757303,10.02383409628895,832.1438700084009,95.53216869262172,-79.29842203459185,133.6244731440981,1,1,1,1
92501000,92500000,0.0030936268786065685,-0.0038275258101373288,0.5799846304425875,0.0032790080926488035,0.002006948754257889,0.0002637052560488825,0.9999925753335193,0.08977369047692299,-0.11250213770527279,0.001724145760131462,0.19250637524741862,0.10965387628510767,0.009836534156236998,1.4843974363131691,-1.9293939690743667,0.13339204265852592,3.28970308043388,1.4827810902725087,-0.1042862895332639,0.31,0.29,-1.3052101792454085e-11,0.0,0.0,0.0,0.0,0.0,0.0,0.31,-0.29,-3.229998949212782e-11,0.0,0.0,0.0,0.0,0.0,0.0,-0.31,0.29,-2.4985574743913433e-14,0.0,0.0,0.0,0.0,0.0,0.0,-0.31,-0.29,5.037027275051731e-12,0.0,0.0,0.0,0.0,0.0,0.0,33.977631275366406,-42.952151609966904,187.74659129245674,-29.960315588079034,-50.33904821388098,67.3115716374331,32.754347210338636,10.336740086591236,678.4516486944185,96.7431556367078,-81.21613492141304,142.66519707422248,1,1,1,1
95001000,95000000,0.0033227025471924744,-0.004114821764624602,0.5799893696398961,0.003524800707139485,0.0021462895278500493,0.00027585905816799347,0.9999914465249278,0.09348771607351186,-0.11733889783575485,0.002072049076189744,0.2007518203364386,0.11331917919389137,0.009539299743751862,1.4864894724182511,-1.9396466519775473,0.14500081706586326,3.3060182998847147,1.4488081636094599,-0.1337318370071243,0.31,0.29,-1.3052101792454085e-11,0.0,0.0,0.0,0.0,0.0,0.0,0.31,-0.29,-3.229998949212782e-11,0.0,0.0,0.0,0.0,0.0,0.0,-0.31,0.29,-2.4985574743913433e-14,0.0,0.0,0.0,0.0,0.0,0.0,-0.31,-0.29,5.037027275051731e-12,0.0,0.0,0.0,0.0,0.0,0.0,32.241639133084874,-41.43437539606873,197.68959866353757,-32.0272314481318,-50.171984557091974,65.80840087847265,32.81681754990121,10.642580656400302,548.0415643125066,97.85051301586034,-83.04521505754963,151.92619922564194,1,1,1,1
97501000,97500000,0.0035610677325793073,-0.004414239362301316,0.5799950153117082,0.0037809254036504487,0.0022901522605285793,0.0002876007922877703,0.9999901884976171,0.0972044699963158,-0.12219853354849192,0.002449500879849603,0.20903329394789052,0.11689465034125297,0.009166725457900012,1.486580097285174,-1.9476944348783707,0.1570308327397884,3.318526160058087,1.4109151180927546,-0.16455677442129132,0.31,0.29,-1.3052101792454085e-11,0.0,0.0,0.0,0.0,0.0,0.0,0.31,-0.29,-3.229998949212782e-11,0.0,0.0,0.0,0.0,0.0,0.0,-0.31,0.29,-2.4985574743913433e-14,0.0,0.0,0.0,0.0,0.0,0.0,-0.31,-0.29,5.037027275051731e-12,0.0,0.0,0.0,0.0,0.0,0.0,30.179765233923007,-39.55110561330335,208.7138999418196,-34.10425264776888,-49.945979971821856,64.40949297649364,32.541631442052605,10.937880287584903,444.9112195743578,98.85212868495822,-84.78007996931004,161.37671978057568,1,1,1,1
100001000,100000000,0.003808723001172486,-0.0047258289018106015,0.580001642645621,0.004047421510087357,0.002438417899864759,0.00029883499590687063,0.9999887915346404,0.10091894871723929,-0.12707553259347804,0.0028575542742775104,0.21734127963743735,0.12037048515155596,0.008715373751027038,1.4846693109139388,-1.9535373177768374,0.16948208968030112,3.327228219994003,1.3690985090411711,-0.19675223100888434,0.31,0.29,-1.3052101792454085e-11,0.0,0.0,0.0,0.0,0.0,0.0,0.31,-0.29,-3.229998949212782e-11,0.0,0.0,0.0,0.0,0.0,0.0,-0.31,0.29,-2.4985574743913433e-14,0.0,0.0,0.0,0.0,0.0,0.0,-0.31,-0.29,5.037027275051731e-12,0.0,0.0,0.0,0.0,0.0,0.0,27.77776485982838,-37.28567641812907,220.85950512900416,-36.18713944540739,-49.661937236312276,63.11524220143449,31.89103689258473,11.219163462013803,373.05821719166215,99.74589049888034,-86.41514718300266,170.98599892124247,1,1,1,1
102501000,102500000,0.0040656564105571915,-0.005049626901170575,0.5800093294619911,0.004324316486732754,0.0025909550641077016,0.00030946201794635955,0.9999872456546822,0.10462614870818701,-0.13196438272070748,0.0032972623626399324,0.22566626482096416,0.12373687027844418,0.008181830213902484,1.480757113304544,-1.957175300672946,0.18235458788740164,3.3321260059780657,1.323354766627857,-0.23030856933304616,0.31,0.29,-1.3052101792454085e-11,0.0,0.0,0.0,0.0,0.0,0.0,0.31,-0.29,-3.229998949212782e-11,0.0,0.0,0.0,0.0,0.0,0.0,-0.31,0.29,-2.4985574743913433e-14,0.0,0.0,0.0,0.0,0.0,0.0,-0.31,-0.29,5.037027275051731e-12,0.0,0.0,0.0,0.0,0.0,0.0,25.021393292748854,-34.62142196700452,234.166424226792,-38.27165209946437,-49.32075912880483,61.92604282323374,30.827281907289446,11.482954661555759,336.48015987611234,100.52968631250552,-87.94483422493587,180.7232768298619,1,1,1,1
105001000,105000000,0.004331843509498363,-0.005385656097774339,0.5800181562139318,0.004611625933025938,0.0027476200259809428,0.00031937805646304186,0.9999855406395153,0.10832106644106357,-0.1368595716801742,0.003769678248103342,0.23399874067084023,0.12698398330793903,0.007562705472020068,1.4748435044569914,-1.9586083835666972,0.19564832736108975,3.333220993874531,1.2736802088309054,-0.2652154021303269,0.31,0.29,-1.3052101792454085e-11,0.0,0.0,0.0,0.0,0.0,0.0,0.31,-0.29,-3.229998949212782e-11,0.0,0.0,0.0,0.0,0.0,0.0,-0.31,0.29,-2.4985574743913433e-14,0.0,0.0,0.0,0.0,0.0,0.0,-0.31,-0.29,5.037027275051731e-12,0.0,0.0,0.0,0.0,0.0,0.0,21.896405814632004,-31.54167641638793,248.67466723688437,-40.35355086835697,-48.923348427541164,60.84228911182985,29.313664047810164,11.725322185040158,339.0435683185968,101.20140398071267,-89.36355862141808,190.55779368865285,1,1,1,1
107501000,107500000,0.004607247337940705,-0.0057339254483899735,0.5800282059873153,0.004909353594299353,0.0029082566959387907,0.0003284751991176084,0.9999836660637613,0.11199869838777349,-0.14175558722187231,0.0042758550338342066,0.24232920196661187,0.130101992495274,0.006854637035711994,1.46692848437128,-1.957836566458092,0.20936330810136555,3.3305145903339133,1.2200710554723755,-0.3014616124161481,0.31,0.29,-1.3052101792454085e-11,0.0,0.0,0.0,0.0,0.0,0.0,0.31,-0.29,-3.229998949212782e-11,0.0,0.0,0.0,0.0,0.0,0.0,-0.31,0.29,-2.4985574743913433e-14,0.0,0.0,0.0,0.0,0.0,0.0,-0.31,-0.29,5.037027275051731e-12,0.0,0.0,0.0,0.0,0.0,0.0,18.388757875174512,-28.029941640649778,264.4234702733894,-42.42859601050226,-48.47060791076285,59.86437533716128,27.55642752047744,11.845304814880818,354.90329043705026,101.75893135838066,-90.66573789875767,200.45878967983413,1,1,1,1
110001000,110000000,0.004891818427008679,-0.006094430129160556,0.5800395645007705,0.005217491368417834,0.003072696604929421,0.0003366414663463049,0.9999816113268871,0.11565404102022145,-0.146646917095796,0.0048168458229989955,0.2506481468972847,0.13308105653818691,0.00605429109592194,1.4570120530474095,-1.954859849347129,0.22349953010822904,3.324008112852528,1.1625234433457177,-0.3390353768524006,0.31,0.29,-1.3052101792454085e-11,0.0,0.0,0.0,0.0,0.0,0.0,0.31,-0.29,-3.229998949212782e-11,0.0,0.0,0.0,0.0,0.0,0.0,-0.31,0.29,-2.4985574743913433e-14,0.0,0.0,0.0,0.0,0.0,0.0,-0.31,-0.29,5.037027275051731e-12,0.0,0.0,0.0,0.0,0.0,0.0,14.878053025139444,-24.402129809777477,279.9393626712081,-44.49254778431738,-47.963440356711544,58.99269576916655,25.74106800222847,11.780738967329672,362.99792876806197,102.20015630038837,-91.84578958326307,210.39550498562517,1,1,1,1
112501000,112500000,0.005185494799006513,-0.006467151535604138,0.5800523201056857,0.0055360193122636564,0.0032407588867153425,0.00034376085717446485,0.9999793656873553,0.1192820908103121,-0.15152804905193934,0.005393703718764173,0.2589460768122939,0.135911324389392,0.005158364257481216,1.4450942104853808,-1.949678232233809,0.23805699338168027,3.3137027686601233,1.1010334424317632,-0.3779241923771836,0.31,0.29,-1.3052101792454085e-11,0.0,0.0,0.0,0.0,0.0,0.0,0.31,-0.29,-3.229998949212782e-11,0.0,0.0,0.0,0.0,0.0,0.0,-0.31,0.29,-2.4985574743913433e-14,0.0,0.0,0.0,0.0,0.0,0.0,-0.31,-0.29,5.037027275051731e-12,0.0,0.0,0.0,0.0,0.0,0.0,11.711655755254744,-20.956989203379937,293.90871865413106,-46.541166448219386,-47.40274854362888,58.22764467778412,23.882469323352357,11.550054166650776,364.0482408898791,102.52296666161465,-92.89813120124266,220.33717978824512,1,1,1,1
115001000,115000000,0.005488201967418196,-0.006852057282613764,0.5800665637862059,0.005864905648006928,0.0034122502598054106,0.000349713397599854,0.9999769182988395,0.12287784422994993,-0.15639347084029645,0.00600748182429622,0.2672134959182033,0.1385829351109519,0.004163585201733079,1.4311749566851928,-1.942291715118131,0.2530356979217192,3.2995996324106414,1.0355970732036601,-0.4181149060966277,0.31,0.29,-1.3052101792454085e-11,0.0,0.0,0.0,0.0,0.0,0.0,0.31,-0.29,-3.229998949212782e-11,0.0,0.0,0.0,0.0,0.0,0.0,-0.31,0.29,-2.4985574743913433e-14,0.0,0.0,0.0,0.0,0.0,0.0,-0.31,-0.29,5.037027275051731e-12,0.0,0.0,0.0,0.0,0.0,0.0,8.878142761607979,-17.69499512081582,306.4134577141717,-48.570212260625354,-46.78943524975641,57.56961633295249,21.995515314138178,11.171679937108168,358.7749843807487,102.72525029693841,-93.8171802790048,230.25305426991287,1,1,1,1
117501000,117500000,0.005799852936907475,-0.0072491012044574605,0.5800823891592346,0.0062041067690971645,0.0035869650090560607,0.00035437519146332906,0.9999742582484037,0.1264362977510396,-0.16123767021086138,0.006659233242761594,0.27544091091810863,0.14108601777327512,0.00306671627035005,1.4152542916468471,-1.9327002980000967,0.2684356437283458,3.281699622650257,0.9662103250213786,-0.45959374843867296,0.31,0.29,-1.3052101792454085e-11,0.0,0.0,0.0,0.0,0.0,0.0,0.31,-0.29,-3.229998949212782e-11,0.0,0.0,0.0,0.0,0.0,0.0,-0.31,0.29,-2.4985574743913433e-14,0.0,0.0,0.0,0.0,0.0,0.0,-0.31,-0.29,5.037027275051731e-12,0.0,0.0,0.0,0.0,0.0,0.0,6.366090740286699,-14.61662286144378,317.5354993433438,-50.57544547995242,-46.12440325333583,57.01900500461012,20.09508980487501,10.664045802965896,347.8989168189182,102.80489506123845,-94.59735434285794,240.11236861284726,1,1,1,1
120001000,120000000,0.006120348203317859,-0.00765822335477824,0.580099892474433,0.0065535672459084695,0.0037646849670028436,0.0003576184737138513,0.9999713745965331,0.1299524478454857,-0.16605513491362828,0.007350011077326775,0.283618830590654,0.14341069140146187,0.0018645549621894284,1.397332215370342,-1.9209039808797042,0.28425683080156,3.2600034770360544,0.8928691756167184,-0.5023463695686051,0.31,0.29,-1.3052101792454085e-11,0.0,0.0,0.0,0.0,0.0,0.0,0.31,-0.29,-3.229998949212782e-11,0.0,0.0,0.0,0.0,0.0,0.0,-0.31,0.29,-2.4985574743913433e-14,0.0,0.0,0.0,0.0,0.0,0.0,-0.31,-0.29,5.037027275051731e-12,0.0,0.0,0.0,0.0,0.0,0.0,4.164076387378468,-11.72234772462249,327.3567630336607,-52.55262636461764,-45.40855533260874,56.57620496269551,18.196076625851944,10.045581288488005,332.1407957826345,102.75978880939374,-95.23307091911047,249.88436299926798,1,1,1,1
122501000,122500000,0.006449575753672622,-0.0080793500065941,0.5801191726142205,0.00691321983096678,0.003945179494986617,0.00035931166596436765,0.9999682564188964,0.13342129098519287,-0.17084035269859127,0.008080868431158222,0.2917377653055066,0.14554706497172676,0.0005539353350330731,1.3774087278556784,-1.9069027637569542,0.300499259141362,3.234511726278172,0.815569611670063,-0.5463578790660709,0.31,0.29,-1.3052101792454085e-11,0.0,0.0,0.0,0.0,0.0,0.0,0.31,-0.29,-3.229998949212782e-11,0.0,0.0,0.0,0.0,0.0,0.0,-0.31,0.29,-2.4985574743913433e-14,0.0,0.0,0.0,0.0,0.0,0.0,-0.31,-0.29,5.037027275051731e-12,0.0,0.0,0.0,0.0,0.0,0.0,2.26067639897084,-9.0126450097106,335.95916827713603,-54.49751517303815,-44.64279426581672,56.24161047714714,16.31335960735807,9.334715917938542,312.22137885014496,102.5878193962831,-95.7187475340707,259.5382776113936,1,1,1,1
125001000,125000000,0.006787411066174793,-0.008512393652298018,0.5801403310937742,0.00728298546368394,0.00412820546414201,0.00035931943422453717,0.9999648928497069,0.13683782364206562,-0.1755878113157444,0.008852858407422401,0.29978822647206066,0.1474852374606305,-0.0008682706959416884,1.3554838291028561,-1.8906966466318473,0.31716292874775154,3.20522466677788,0.7343076504805158,-0.5916128888632051,0.31,0.29,-1.3052101792454085e-11,0.0,0.0,0.0,0.0,0.0,0.0,0.31,-0.29,-3.229998949212782e-11,0.0,0.0,0.0,0.0,0.0,0.0,-0.31,0.29,-2.4985574743913433e-14,0.0,0.0,0.0,0.0,0.0,0.0,-0.31,-0.29,5.037027275051731e-12,0.0,0.0,0.0,0.0,0.0,0.0,0.6444674711513837,-6.487990016066797,343.4246345657832,-56.405872163631045,-43.82802283120144,56.01561581790351,14.461822579682464,8.54987921558155,288.86142359969654,102.28687467678544,-96.04880171404719,269.04335263144344,1,1,1,1
127501000,127500000,0.007133717110207174,-0.008957253003657973,0.580163472061029,0.007662773274519419,0.0043135072363188936,0.0003575027486856951,0.9999612731265397,0.14019704228800864,-0.18029199851508187,0.009667034109285802,0.30776072591807874,0.14921529794985425,-0.002405152171112683,1.3315575191118754,-1.872285629504383,0.3342478396207289,3.172142331933888,0.6490793627314314,-0.6380955594434332,0.31,0.29,-1.3052101792454085e-11,0.0,0.0,0.0,0.0,0.0,0.0,0.31,-0.29,-3.229998949212782e-11,0.0,0.0,0.0,0.0,0.0,0.0,-0.31,0.29,-2.4985574743913433e-14,0.0,0.0,0.0,0.0,0.0,0.0,-0.31,-0.29,5.037027275051731e-12,0.0,0.0,0.0,0.0,0.0,0.0,-0.695973699992361,-4.148858043049707,349.835081391616,-58.27345759481335,-42.96514380700451,55.89861525490308,12.656349373114214,7.709500705681074,262.7816876095366,101.8548425057796,-96.21765098534816,278.3688282416364,1,1,1,1
130001000,130000000,0.007488344346332316,-0.009413812991816912,0.5801887022966781,0.008052480588486316,0.0045008166450105375,0.00035371894542281305,0.9999573866364545,0.1434939433949265,-0.18494740204659774,0.010524448639914873,0.3156457751949055,0.1507273257892617,-0.004059758018935551,1.3056297978827356,-1.8516697123745618,0.351753991760294,3.135264462089361,0.5598808963538816,-0.685789649300406,0.31,0.29,-1.3052101792454085e-11,0.0,0.0,0.0,0.0,0.0,0.0,0.31,-0.29,-3.229998949212782e-11,0.0,0.0,0.0,0.0,0.0,0.0,-0.31,0.29,-2.4985574743913433e-14,0.0,0.0,0.0,0.0,0.0,0.0,-0.31,-0.29,5.037027275051731e-12,0.0,0.0,0.0,0.0,0.0,0.0,-1.7720704183728275,-1.9957243900180024,355.2724282466476,-60.09603172500229,-42.0550599714675,55.89100305808433,10.911823817942407,6.83200991250116,234.70292845791224,101.28961073814443,-96.21971287428212,287.48394462419174,1,1,1,1
132501000,132500000,0.007851130726292538,-0.009881944767292771,0.5802161312141719,0.008451992927914348,0.004689852976365163,0.0003478217898675881,0.999953222963259,0.1467235234347239,-0.18954850966028608,0.011426155102476092,0.3234338848058201,0.15201139082099294,-0.005835096116188428,1.2777006654154377,-1.8288488952423831,0.36968138516644666,3.0945904730923495,0.4667085014910365,-0.7346785676564512,0.31,0.29,-1.3052101792454085e-11,0.0,0.0,0.0,0.0,0.0,0.0,0.31,-0.29,-3.229998949212782e-11,0.0,0.0,0.0,0.0,0.0,0.0,-0.31,0.29,-2.4985574743913433e-14,0.0,0.0,0.0,0.0,0.0,0.0,-0.31,-0.29,5.037027275051731e-12,0.0,0.0,0.0,0.0,0.0,0.0,-2.5952459879024588,-0.029064356330350538,359.8185946228919,-61.869354812614816,-41.098674102832064,55.99317349738576,9.243129744456125,5.935836360305856,205.34590372307053,100.58906722875889,-96.04940490715742,296.3579419613286,1,1,1,1
135001000,135000000,0.008221901693009922,-0.010361505699978481,0.5802458708597197,0.008861184014378,0.004880322950360349,0.0003396615418960813,0.9999487719357429,0.14988077887930532,-0.19408980910614104,0.012373206600135928,0.33111556335403103,0.15305755366735138,-0.007734132484086316,1.2477701217099804,-1.8038231781078462,0.3880300198391871,3.050119423443085,0.36955855656706926,-0.7847454304398389,0.31,0.29,-1.3052101792454085e-11,0.0,0.0,0.0,0.0,0.0,0.0,0.31,-0.29,-3.229998949212782e-11,0.0,0.0,0.0,0.0,0.0,0.0,-0.31,0.29,-2.4985574743913433e-14,0.0,0.0,0.0,0.0,0.0,0.0,-0.31,-0.29,5.037027275051731e-12,0.0,0.0,0.0,0.0,0.0,0.0,-3.176923712493691,1.750646758654585,363.55550001236224,-63.5891871160682,-40.09688897933985,56.20552084274585,7.665150982944458,5.039409573359205,175.43137098325874,99.75109983250177,-95.70114461028248,304.9600604352664,1,1,1,1
137501000,137500000,0.008600470180586309,-0.010852339379141944,0.5802780359122879,0.00927991576969388,0.005071920702222416,0.00032908502236364155,0.9999440236766985,0.1529607062005753,-0.19856578813415662,0.013366656236060849,0.3386813166067431,0.15385586608524587,-0.009759790628411504,1.2158381667663658,-1.7765925609709536,0.4067998957785151,3.001849980002361,0.26842759546479833,-0.8359731195200671,0.31,0.29,-1.3052101792454085e-11,0.0,0.0,0.0,0.0,0.0,0.0,0.31,-0.29,-3.229998949212782e-11,0.0,0.0,0.0,0.0,0.0,0.0,-0.31,0.29,-2.4985574743913433e-14,0.0,0.0,0.0,0.0,0.0,0.0,-0.31,-0.29,5.037027275051731e-12,0.0,0.0,0.0,0.0,0.0,0.0,-3.5285268960589704,3.3429336555781477,366.5650639070723,-65.2512888937793,-39.050607379232474,56.52843936410308,6.192771363696487,4.161159075925253,145.68008781672398,98.77359640425195,-95.16934950996568,313.2595402282228,1,1,1,1
140001000,140000000,0.008986636614303295,-0.011354275613426064,0.5803127436836012,0.009708038315886585,0.005264327764175616,0.00031593568090909814,0.9999389686525344,0.15595830187043863,-0.20297093449432715,0.014407557113417332,0.3461216464716734,0.15439637138996992,-0.011914951031803497,1.1819048005845914,-1.7471570438317023,0.4259910129844309,2.9497803822364848,0.1633123358169469,-0.8883443452003167,0.31,0.29,-1.3052101792454085e-11,0.0,0.0,0.0,0.0,0.0,0.0,0.31,-0.29,-3.229998949212782e-11,0.0,0.0,0.0,0.0,0.0,0.0,-0.31,0.29,-2.4985574743913433e-14,0.0,0.0,0.0,0.0,0.0,0.0,-0.31,-0.29,5.037027275051731e-12,0.0,0.0,0.0,0.0,0.0,0.0,-3.661478842510739,4.747321035081681,368.9292057990354,-66.85142040416544,-37.96073208075151,56.962323331395936,4.840874717001293,3.319514392268042,116.8128118017134,97.65444479888836,-94.44843713251541,321.2256215224187,1,1,1,1
142501000,142500000,0.009380188910622249,-0.011867130430848707,0.5803501141181421,0.010145389974017987,0.005457213047608347,0.00030005366483945627,0.9999335977232819,0.15886856236079977,-0.20729973593664655,0.015496962335371834,0.35342704988232443,0.1546691049511046,-0.014202450806351085,1.1459700231646583,-1.7155166266900945,0.4456033714569343,2.8939084049757473,0.05420970841670411,-0.9418417119661331,0.31,0.29,-1.3052101792454085e-11,0.0,0.0,0.0,0.0,0.0,0.0,0.31,-0.29,-3.229998949212782e-11,0.0,0.0,0.0,0.0,0.0,0.0,-0.31,0.29,-2.4985574743913433e-14,0.0,0.0,0.0,0.0,0.0,0.0,-0.31,-0.29,5.037027275051731e-12,0.0,0.0,0.0,0.0,0.0,0.0,-3.587202855761438,5.963333597806514,370.72984518026533,-68.38534190564357,-36.828165862138576,57.507567014562866,3.6243448731479724,2.5329050466516243,89.55030051647435,96.39153287128981,-93.53282500424007,328.8275445000721,1,1,1,1
145001000,145000000,0.009780902477184295,-0.012390706078802745,0.5803902697931512,0.01059179726176992,0.005650232825746054,0.00028127588889555405,0.9999279021927805,0.1616864841435635,-0.21154668021110906,0.016635925005090823,0.3605880175882741,0.15466409476335624,-0.016625083514624866,1.108033834506566,-1.6816713095461289,0.46563697119602554,2.834231319665145,-0.058883112245960066,-0.9964477874893622,0.31,0.29,-1.3052101792454085e-11,0.0,0.0,0.0,0.0,0.0,0.0,0.31,-0.29,-3.229998949212782e-11,0.0,0.0,0.0,0.0,0.0,0.0,-0.31,0.29,-2.4985574743913433e-14,0.0,0.0,0.0,0.0,0.0,0.0,-0.31,-0.29,5.037027275051731e-12,0.0,0.0,0.0,0.0,0.0,0.0,-3.3171222397235143,6.990496044393989,372.04890154277547,-69.84881365663091,-35.65381150163532,58.16456468354245,2.5580656624256033,1.8197605633400435,64.61331153925374,94.98274847633526,-92.41693065144813,336.0345493434031,1,1,1,1
147501000,147500000,0.01018854021281032,-0.012924791024056035,0.5804333359186267,0.011047074889665633,0.00584303071692275,0.00025943610568835,0.9999218738588181,0.1644070636906342,-0.2157062550677086,0.01782549822574078,0.36759503284668654,0.15437136209514646,-0.019185599167287955,1.0680962346103158,-1.6456210923998067,0.4860918122017043,2.7707458540883168,-0.17596867631484325,-1.0521451748862845,0.31,0.29,-1.3052101792454085e-11,0.0,0.0,0.0,0.0,0.0,0.0,0.31,-0.29,-3.229998949212782e-11,0.0,0.0,0.0,0.0,0.0,0.0,-0.31,0.29,-2.4985574743913433e-14,0.0,0.0,0.0,0.0,0.0,0.0,-0.31,-0.29,5.037027275051731e-12,0.0,0.0,0.0,0.0,0.0,0.0,-2.8626602983093976,7.828333075485444,372.96829437857934,-71.23759591554438,-34.43857177748341,58.93371060827305,1.656920915123262,1.1985104665973427,42.722602448299085,93.42597946890348,-91.09517160044783,342.81587623462906,1,1,1,1
150001000,150000000,0.010602852507500976,-0.013469159952751403,0.5804794403373249,0.011511025755810115,0.00603523766854526,0.00023436497658471404,0.9999155050629983,0.16702529747391665,-0.21977294825643942,0.019066735100488168,0.374438570011209,0.15378092221780446,-0.021886704405418476,1.0261572234759075,-1.6073659752511262,0.5069678944739708,2.7034481505480388,-0.2970492257566131,-1.1089165882289058,0.31,0.29,-1.3052101792454085e-11,0.0,0.0,0.0,0.0,0.0,0.0,0.31,-0.29,-3.229998949212782e-11,0.0,0.0,0.0,0.0,0.0,0.0,-0.31,0.29,-2.4985574743913433e-14,0.0,0.0,0.0,0.0,0.0,0.0,-0.31,-0.29,5.037027275051731e-12,0.0,0.0,0.0,0.0,0.0,0.0,-2.2352403354315378,8.476369391722217,373.56994317969054,-72.54744894080122,-33.18334946792438,59.815399058693245,0.9357944615300475,0.6875842806875596,24.598930821856925,91.71911370387343,-89.5619653775477,349.1407653559704,1,1,1,1
152501000,152500000,0.01102357724243667,-0.014023573770406667,0.5805287135247601,0.011983440939024755,0.006226471941846385,0.0002058901428108127,0.9999087887400867,0.16953618196531525,-0.22374124752729552,0.020360688732499466,0.381109093014373,0.15288278521822043,-0.02473106287567573,0.9822168011033403,-1.5669059581000893,0.5282652180128249,2.6323337224896215,-0.4221266603990456,-1.166744931308298,0.31,0.29,-1.3052101792454085e-11,0.0,0.0,0.0,0.0,0.0,0.0,0.31,-0.29,-3.229998949212782e-11,0.0,0.0,0.0,0.0,0.0,0.0,-0.31,0.29,-2.4985574743913433e-14,0.0,0.0,0.0,0.0,0.0,0.0,-0.31,-0.29,5.037027275051731e-12,0.0,0.0,0.0,0.0,0.0,0.0,-1.4462856550023826,8.934129693745644,373.9357674381225,-73.77413299081846,-31.889047351199892,60.810024304741475,0.40957013193504466,0.3054115298747604,10.963054238175346,89.86003903612392,-87.81172950905605,354.97845688964594,1,1,1,1
155001000,155000000,0.011450439789977573,-0.014587779601914645,0.5805812885892043,0.01246409969024618,0.0064163390975251824,0.00017383629653035246,0.9999017184665897,0.17193471363673488,-0.22760564063027125,0.021708412224941125,0.38759705373959885,0.1516669568978535,-0.027721295806438492,0.9362749674926136,-1.5242410409466949,0.549983782818267,2.557397409556707,-0.5512025028079433,-1.225613379648932,0.31,0.29,-1.3052101792454085e-11,0.0,0.0,0.0,0.0,0.0,0.0,0.31,-0.29,-3.229998949212782e-11,0.0,0.0,0.0,0.0,0.0,0.0,-0.31,0.29,-2.4985574743913433e-14,0.0,0.0,0.0,0.0,0.0,0.0,-0.31,-0.29,5.037027275051731e-12,0.0,0.0,0.0,0.0,0.0,0.0,-0.5072195609343542,9.201138682197072,374.14768664588894,-74.91340832401329,-30.556568205551535,61.917980616356225,0.0931317566273222,0.07042173842296506,2.535730275500441,87.84664332053387,-85.83888152128134,360.2981910178744,1,1,1,1
157501000,157500000,0.011883153013663618,-0.015161510791543122,0.5806373012716879,0.012952769422054236,0.006604431982374483,0.0001380252516442115,0.9998942885082999,0.1742158889600798,-0.2313606153153604,0.023110958680979624,0.3938928902788703,0.15012343976101067,-0.030859982793041973,0.8883317226437293,-1.4793712237909435,0.5721235888902965,2.4786333310726523,-0.6842778619909903,-1.2855054657729263,0.31,0.29,-1.3052101792454085e-11,0.0,0.0,0.0,0.0,0.0,0.0,0.31,-0.29,-3.229998949212782e-11,0.0,0.0,0.0,0.0,0.0,0.0,-0.30999881808168234,0.29000018173557757,1.4598177747449986e-06,0.008838051442602161,0.0013589673325534117,0.010914634181914054,33.003221347735,5.074681899269878,40.741115109890885,-0.31,-0.29,5.037027275051731e-12,0.0,0.0,0.0,0.0,0.0,0.0,0.5705346428600766,9.27692105771783,374.28762029500336,-75.96103519880268,-29.186814809220976,63.13966226347596,0.0,0.0,0.0,85.6768144119821,-83.6378389405319,365.06920792287565,1,1,0,1
160001000,160000000,0.012321417268214497,-0.01574448690293487,0.5806968899459982,0.013449205696188566,0.006790330716997525,9.827601404717187e-05,0.999886493866539,0.17637470440725508,-0.23500065933255734,0.024569381203781434,0.39998702507214495,0.1482422340953478,-0.03414966280023657,0.8383870665566855,-1.4322965066328335,0.5946846362289138,2.39603483794473,-0.8213533959155691,-1.3464051677132356,0.31,0.29,-1.3052101792454085e-11,0.0,0.0,0.0,0.0,0.0,0.0,0.31,-0.29,-3.229998949212782e-11,0.0,0.0,0.0,0.0,0.0,0.0,-0.3098747860128435,0.29001925330704725,0.0001542608268239037,0.08990835303667141,0.01382459872447074,0.1106055486077985,31.853019927520336,4.897823214263976,39.011616430816616,-0.31,-0.29,5.037027275051731e-12,0.0,0.0,0.0,0.0,0.0,0.0,1.7755536524685063,9.161001520949277,374.43748787747916,-76.91277387360384,-27.780689940449818,64.47546351603921,0.0,0.0,0.0,83.34844016534755,-81.20301929311623,369.260747786868,1,1,0,1
162501000,162500000,0.012764920399529672,-0.01633641371910766,0.5807601956186816,0.013953152208907652,0.006973602684717471,5.440485106677606e-05,0.9998783303228163,0.1784061564501649,-0.23852026043185592,0.02608473289651302,0.4058698629245502,0.1460133391475702,-0.03759283538998992,0.7864409992314831,-1.3830168894723673,0.6176669248341187,2.309594462992886,-0.9624292728261381,-1.40829700077481,0.31,0.29,-1.3052101792454085e-11,0.0,0.0,0.0,0.0,0.0,0.0,0.31,-0.29,-3.229998949212782e-11,0.0,0.0,0.0,0.0,0.0,0.0,-0.3095516725694577,0.29006893627360614,0.0005508844385656667,0.168103151080204,0.025848083403873314,0.20597271633599729,30.702818507305665,4.720964529258073,37.28211775174235,-0.31,-0.29,5.037027275051731e-12,0.0,0.0,0.0,0.0,0.0,0.0,3.096414163978448,8.852904772532732,374.6792088853301,-77.76438460683372,-26.33909637747962,65.92577864398444,0.0,0.0,0.0,80.85940843550905,-78.52884010534268,372.8420507920712,1,1,0,1
